{
  "detail": [
    {
      "label": "市区",
      "options": [
        {
          "lat": 39.1011,
          "lon": 117.2189,
          "name": "小白楼",
          "sta": "653501"
        },
        {
          "lat": 39.0822,
          "lon": 117.125,
          "name": "华苑小区",
          "sta": "653583"
        },
        {
          "lat": 39.095,
          "lon": 117.2019,
          "name": "恩德里",
          "sta": "653506"
        },
        {
          "lat": 39.0667,
          "lon": 117.2,
          "name": "天津城市气候监测站",
          "sta": "54517"
        },
        {
          "lat": 39.1189,
          "lon": 117.1831,
          "name": "福方里",
          "sta": "653502"
        },
        {
          "lat": 39.1825,
          "lon": 117.1506,
          "name": "潞河园",
          "sta": "653517"
        },
        {
          "lat": 39.1658,
          "lon": 117.1972,
          "name": "容和里",
          "sta": "653514"
        },
        {
          "lat": 39.1483,
          "lon": 117.1589,
          "name": "泉春里",
          "sta": "653513"
        },
        {
          "lat": 39.11,
          "lon": 117.1469,
          "name": "景湖里",
          "sta": "653565"
        },
        {
          "lat": 39.1661,
          "lon": 117.23,
          "name": "民权门",
          "sta": "653504"
        },
        {
          "lat": 39.1664,
          "lon": 117.1419,
          "name": "西于庄",
          "sta": "653507"
        },
        {
          "lat": 39.1331,
          "lon": 117.14,
          "name": "广灵里",
          "sta": "653520"
        },
        {
          "lat": 39.0889,
          "lon": 117.1472,
          "name": "眺园里",
          "sta": "653512"
        },
        {
          "lat": 39.1339,
          "lon": 117.2231,
          "name": "唐家口",
          "sta": "653505"
        },
        {
          "lat": 39.1469,
          "lon": 117.1903,
          "name": "望海楼北里",
          "sta": "653518"
        },
        {
          "lat": 39.0678,
          "lon": 117.2567,
          "name": "恒山里",
          "sta": "653519"
        },
        {
          "lat": 39.1303,
          "lon": 117.1647,
          "name": "南开二纬路",
          "sta": "653582"
        },
        {
          "lat": 39.1131,
          "lon": 117.1886,
          "name": "黄家花园",
          "sta": "653585"
        },
        {
          "lat": 39.155,
          "lon": 119.3583,
          "name": "秦皇岛33号",
          "sta": "54548"
        },
        {
          "lat": 39.1636,
          "lon": 117.215,
          "name": "中山北路",
          "sta": "653586"
        },
        {
          "lat": 39.0708,
          "lon": 117.1686,
          "name": "奥运体育馆",
          "sta": "653588"
        },
        {
          "lat": 39.1528,
          "lon": 117.1422,
          "name": "洛川里",
          "sta": "653516"
        },
        {
          "lat": 39.095,
          "lon": 117.2311,
          "name": "挂甲寺",
          "sta": "653508"
        },
        {
          "lat": 39.0608,
          "lon": 117.2497,
          "name": "枫林路",
          "sta": "653511"
        },
        {
          "lat": 39.0844,
          "lon": 117.2422,
          "name": "秀芳里",
          "sta": "653521"
        },
        {
          "lat": 39.0619,
          "lon": 117.2181,
          "name": "珠江里",
          "sta": "653509"
        },
        {
          "lat": 39.1381,
          "lon": 117.2092,
          "name": "天津站",
          "sta": "653584"
        },
        {
          "lat": 39.0931,
          "lon": 117.1789,
          "name": "东风里",
          "sta": "653581"
        },
        {
          "lat": 39.1072,
          "lon": 117.1619,
          "name": "南江里",
          "sta": "653503"
        },
        {
          "lat": 39.1031,
          "lon": 117.2636,
          "name": "团结北里",
          "sta": "653510"
        },
        {
          "lat": 38.9392,
          "lon": 117.9803,
          "name": "大沽灯塔",
          "sta": "54630"
        }
      ]
    },
    {
      "label": "静海区",
      "options": [
        {
          "lat": 38.9336,
          "lon": 116.7694,
          "name": "静海王口镇",
          "sta": "652509"
        },
        {
          "lat": 38.9,
          "lon": 116.9897,
          "name": "静海大丰堆",
          "sta": "652511"
        },
        {
          "lat": 38.7075,
          "lon": 117.0383,
          "name": "静海薛庄子",
          "sta": "652513"
        },
        {
          "lat": 39.0531,
          "lon": 116.915,
          "name": "静海独流镇",
          "sta": "652501"
        },
        {
          "lat": 38.9447,
          "lon": 117.0464,
          "name": "静海杨成庄",
          "sta": "652512"
        },
        {
          "lat": 38.8008,
          "lon": 117.1644,
          "name": "静海胡连庄",
          "sta": "652507"
        },
        {
          "lat": 39.0247,
          "lon": 116.9694,
          "name": "静海良王庄",
          "sta": "652508"
        },
        {
          "lat": 38.9447,
          "lon": 116.9906,
          "name": "静海前毕庄",
          "sta": "652510"
        },
        {
          "lat": 38.7644,
          "lon": 117.0064,
          "name": "静海西翟庄",
          "sta": "652506"
        },
        {
          "lat": 38.785,
          "lon": 116.9006,
          "name": "静海纪庄子",
          "sta": "652505"
        },
        {
          "lat": 38.8897,
          "lon": 116.79,
          "name": "静海大邀堡",
          "sta": "652502"
        },
        {
          "lat": 38.8719,
          "lon": 116.9081,
          "name": "静海双塘镇",
          "sta": "652503"
        },
        {
          "lat": 38.7878,
          "lon": 117.0811,
          "name": "静海蔡公庄",
          "sta": "652566"
        },
        {
          "lat": 38.6858,
          "lon": 116.8789,
          "name": "静海九宣闸",
          "sta": "652567"
        },
        {
          "lat": 38.8561,
          "lon": 117.0683,
          "name": "静海团泊水库",
          "sta": "652561"
        },
        {
          "lat": 38.6475,
          "lon": 117.0906,
          "name": "静海中旺",
          "sta": "652562"
        },
        {
          "lat": 38.9408,
          "lon": 116.8614,
          "name": "静海梁头",
          "sta": "652563"
        },
        {
          "lat": 38.7981,
          "lon": 116.7519,
          "name": "静海沿庄",
          "sta": "652564"
        },
        {
          "lat": 39.0375,
          "lon": 116.8108,
          "name": "静海台头",
          "sta": "652565"
        },
        {
          "lat": 38.9022,
          "lon": 117.1581,
          "name": "静海团泊镇",
          "sta": "652504"
        },
        {
          "lat": 38.9167,
          "lon": 116.9167,
          "name": "静海国家一般气象站",
          "sta": "54619"
        }
      ]
    },
    {
      "label": "北辰区",
      "options": [
        {
          "lat": 39.2356,
          "lon": 117.2472,
          "name": "北辰区科技园东区",
          "sta": "653467"
        },
        {
          "lat": 39.3381,
          "lon": 117.2222,
          "name": "北辰南王平",
          "sta": "653405"
        },
        {
          "lat": 39.2853,
          "lon": 117.2772,
          "name": "北辰大兴水库",
          "sta": "653469"
        },
        {
          "lat": 39.2967,
          "lon": 117.1592,
          "name": "北辰区科技园北区",
          "sta": "653468"
        },
        {
          "lat": 39.185,
          "lon": 117.1603,
          "name": "北辰天穆镇",
          "sta": "653402"
        },
        {
          "lat": 39.1892,
          "lon": 116.9894,
          "name": "北辰岔房子",
          "sta": "653404"
        },
        {
          "lat": 39.2797,
          "lon": 117.0192,
          "name": "北辰前丁庄",
          "sta": "653470"
        },
        {
          "lat": 39.2028,
          "lon": 117.2144,
          "name": "北辰宜兴埠",
          "sta": "653403"
        },
        {
          "lat": 39.2264,
          "lon": 117.0308,
          "name": "北辰双口",
          "sta": "653464"
        },
        {
          "lat": 39.2333,
          "lon": 117.1333,
          "name": "北辰国家一般气象站",
          "sta": "54528"
        },
        {
          "lat": 39.26,
          "lon": 117.1044,
          "name": "北辰双街",
          "sta": "653462"
        },
        {
          "lat": 39.2469,
          "lon": 117.2192,
          "name": "北辰小淀",
          "sta": "653463"
        },
        {
          "lat": 39.2897,
          "lon": 117.2222,
          "name": "北辰大张庄",
          "sta": "653401"
        },
        {
          "lat": 39.2944,
          "lon": 117.3269,
          "name": "北辰辛侯庄",
          "sta": "653406"
        },
        {
          "lat": 39.1964,
          "lon": 117.0525,
          "name": "北辰青光",
          "sta": "653461"
        },
        {
          "lat": 39.2539,
          "lon": 117.3467,
          "name": "北辰西堤头",
          "sta": "653465"
        }
      ]
    },
    {
      "label": "津南区",
      "options": [
        {
          "lat": 38.94,
          "lon": 117.3436,
          "name": "津南农业园区",
          "sta": "653364"
        },
        {
          "lat": 38.9053,
          "lon": 117.4611,
          "name": "津南小站镇",
          "sta": "653363"
        },
        {
          "lat": 38.875,
          "lon": 117.3644,
          "name": "津南双闸",
          "sta": "653365"
        },
        {
          "lat": 39.0489,
          "lon": 117.3597,
          "name": "津南辛庄镇",
          "sta": "653301"
        },
        {
          "lat": 38.9739,
          "lon": 117.4856,
          "name": "津南葛沽",
          "sta": "653367"
        },
        {
          "lat": 39.0156,
          "lon": 117.4156,
          "name": "津南双桥河镇",
          "sta": "653361"
        },
        {
          "lat": 38.9458,
          "lon": 117.4036,
          "name": "津南北闸口",
          "sta": "653366"
        },
        {
          "lat": 38.9778,
          "lon": 117.2911,
          "name": "津南八里台镇",
          "sta": "653302"
        },
        {
          "lat": 38.9833,
          "lon": 117.3667,
          "name": "津南国家一般气象站",
          "sta": "54622"
        },
        {
          "lat": 39.0522,
          "lon": 117.3039,
          "name": "津南双港",
          "sta": "653362"
        }
      ]
    },
    {
      "label": "东丽区",
      "options": [
        {
          "lat": 39.0858,
          "lon": 117.3069,
          "name": "东丽张贵庄",
          "sta": "653515"
        },
        {
          "lat": 39.0833,
          "lon": 117.3333,
          "name": "东丽国家一般气象站",
          "sta": "54526"
        },
        {
          "lat": 39.1828,
          "lon": 117.5322,
          "name": "东丽华明设施农业园",
          "sta": "652964"
        },
        {
          "lat": 39.0786,
          "lon": 117.3297,
          "name": "东丽丰年村街",
          "sta": "652965"
        },
        {
          "lat": 39.2275,
          "lon": 117.3667,
          "name": "东丽北于堡",
          "sta": "652968"
        },
        {
          "lat": 39.1725,
          "lon": 117.3728,
          "name": "东丽华明街",
          "sta": "652901"
        },
        {
          "lat": 39.1317,
          "lon": 117.4011,
          "name": "东丽保税区",
          "sta": "652906"
        },
        {
          "lat": 39.0375,
          "lon": 117.5031,
          "name": "东丽无瑕街",
          "sta": "652904"
        },
        {
          "lat": 39.1008,
          "lon": 117.3717,
          "name": "东丽金桥街",
          "sta": "652905"
        },
        {
          "lat": 39.1472,
          "lon": 117.2769,
          "name": "东丽云丽园",
          "sta": "653564"
        },
        {
          "lat": 39.1228,
          "lon": 117.3133,
          "name": "东丽南程林",
          "sta": "653563"
        },
        {
          "lat": 39.0689,
          "lon": 117.4572,
          "name": "东丽军粮城",
          "sta": "652961"
        },
        {
          "lat": 39.185,
          "lon": 117.4739,
          "name": "东丽湖",
          "sta": "652962"
        },
        {
          "lat": 39.2019,
          "lon": 117.2425,
          "name": "东丽大毕庄",
          "sta": "652963"
        },
        {
          "lat": 39.1039,
          "lon": 117.4242,
          "name": "东丽空港经济区",
          "sta": "652966"
        },
        {
          "lat": 39.0017,
          "lon": 117.5108,
          "name": "东丽无瑕街苏庄子",
          "sta": "652967"
        }
      ]
    },
    {
      "label": "西青区",
      "options": [
        {
          "lat": 38.8939,
          "lon": 117.26,
          "name": "西青泰祥园",
          "sta": "652701"
        },
        {
          "lat": 38.9928,
          "lon": 117.2575,
          "name": "西青赤龙南街",
          "sta": "652707"
        },
        {
          "lat": 39.1442,
          "lon": 117.0797,
          "name": "西青曹庄村",
          "sta": "652704"
        },
        {
          "lat": 39.1236,
          "lon": 117.0181,
          "name": "西青杨柳青",
          "sta": "652705"
        },
        {
          "lat": 39.0886,
          "lon": 116.9644,
          "name": "西青中辛口村",
          "sta": "652706"
        },
        {
          "lat": 39.0308,
          "lon": 117.2461,
          "name": "西青开发区",
          "sta": "652702"
        },
        {
          "lat": 39.0428,
          "lon": 117.1075,
          "name": "西青精武镇",
          "sta": "652703"
        },
        {
          "lat": 39.0861,
          "lon": 117.1,
          "name": "西青中北镇",
          "sta": "653566"
        },
        {
          "lat": 39.1631,
          "lon": 117.0983,
          "name": "西青西营门",
          "sta": "652708"
        },
        {
          "lat": 39.0611,
          "lon": 117.1792,
          "name": "西青李七庄",
          "sta": "653561"
        },
        {
          "lat": 39.0833,
          "lon": 117.05,
          "name": "西青国家基本气象站",
          "sta": "54527"
        },
        {
          "lat": 39.0817,
          "lon": 116.9308,
          "name": "西青辛口镇",
          "sta": "652762"
        },
        {
          "lat": 38.9053,
          "lon": 117.2508,
          "name": "西青王稳庄镇",
          "sta": "652764"
        },
        {
          "lat": 39.0319,
          "lon": 117.2319,
          "name": "西青大寺镇",
          "sta": "652763"
        },
        {
          "lat": 38.8708,
          "lon": 117.2497,
          "name": "西青小孙庄",
          "sta": "652761"
        }
      ]
    },
    {
      "label": "武清区",
      "options": [
        {
          "lat": 39.3628,
          "lon": 116.8969,
          "name": "武清石各庄",
          "sta": "652411"
        },
        {
          "lat": 39.3536,
          "lon": 116.9322,
          "name": "武清陈咀",
          "sta": "652412"
        },
        {
          "lat": 39.6022,
          "lon": 116.9003,
          "name": "武清高村",
          "sta": "652413"
        },
        {
          "lat": 39.5806,
          "lon": 117.1342,
          "name": "武清河北屯",
          "sta": "652415"
        },
        {
          "lat": 39.5325,
          "lon": 117.1919,
          "name": "武清崔黄口",
          "sta": "652416"
        },
        {
          "lat": 39.4656,
          "lon": 117.0847,
          "name": "武清大碱厂",
          "sta": "652417"
        },
        {
          "lat": 39.3972,
          "lon": 117.1292,
          "name": "武清徐官屯",
          "sta": "652418"
        },
        {
          "lat": 39.335,
          "lon": 117.0861,
          "name": "武清下朱庄",
          "sta": "652420"
        },
        {
          "lat": 39.4289,
          "lon": 117.1325,
          "name": "武清曹子里",
          "sta": "652419"
        },
        {
          "lat": 39.5253,
          "lon": 116.9847,
          "name": "武清大孟庄",
          "sta": "652409"
        },
        {
          "lat": 39.5539,
          "lon": 116.8992,
          "name": "武清白古屯",
          "sta": "652408"
        },
        {
          "lat": 39.34,
          "lon": 117.055,
          "name": "武清黄庄街",
          "sta": "652406"
        },
        {
          "lat": 39.1714,
          "lon": 116.9253,
          "name": "武清王庆坨",
          "sta": "652405"
        },
        {
          "lat": 39.4283,
          "lon": 116.9133,
          "name": "武清豆张庄",
          "sta": "652404"
        },
        {
          "lat": 39.4478,
          "lon": 116.8353,
          "name": "武清东马圈",
          "sta": "652403"
        },
        {
          "lat": 39.3939,
          "lon": 117.0006,
          "name": "武清东蒲洼",
          "sta": "652402"
        },
        {
          "lat": 39.3689,
          "lon": 117.1947,
          "name": "武清梅厂镇",
          "sta": "652401"
        },
        {
          "lat": 39.4722,
          "lon": 116.9242,
          "name": "武清泗村店",
          "sta": "652410"
        },
        {
          "lat": 39.5417,
          "lon": 117.0889,
          "name": "武清大良",
          "sta": "652414"
        },
        {
          "lat": 39.4275,
          "lon": 117.0592,
          "name": "武清国家一般气象站",
          "sta": "54523"
        },
        {
          "lat": 39.3767,
          "lon": 117.2433,
          "name": "武清上马台",
          "sta": "652464"
        },
        {
          "lat": 39.35,
          "lon": 117.1331,
          "name": "武清绿博园",
          "sta": "652472"
        },
        {
          "lat": 39.3833,
          "lon": 117.0167,
          "name": "武清杨村",
          "sta": "652473"
        },
        {
          "lat": 39.41,
          "lon": 116.9486,
          "name": "武清农科院北",
          "sta": "652471"
        },
        {
          "lat": 39.5958,
          "lon": 117.0558,
          "name": "武清下伍旗畜牧所",
          "sta": "652476"
        },
        {
          "lat": 39.4,
          "lon": 116.9481,
          "name": "武清农科院南",
          "sta": "652470"
        },
        {
          "lat": 39.43,
          "lon": 116.9483,
          "name": "武清农科院",
          "sta": "652469"
        },
        {
          "lat": 39.6442,
          "lon": 116.9339,
          "name": "武清河西务",
          "sta": "652468"
        },
        {
          "lat": 39.6133,
          "lon": 117.0575,
          "name": "武清下伍旗",
          "sta": "652461"
        },
        {
          "lat": 39.4881,
          "lon": 117.0025,
          "name": "武清南蔡村",
          "sta": "652463"
        },
        {
          "lat": 39.5314,
          "lon": 116.8667,
          "name": "武清城关镇",
          "sta": "652462"
        },
        {
          "lat": 39.36,
          "lon": 116.8992,
          "name": "武清黄花店",
          "sta": "652465"
        },
        {
          "lat": 39.2689,
          "lon": 116.9328,
          "name": "武清汊沽港",
          "sta": "652467"
        },
        {
          "lat": 39.4383,
          "lon": 117.2703,
          "name": "武清大黄堡",
          "sta": "652466"
        },
        {
          "lat": 39.5711,
          "lon": 116.8183,
          "name": "武清大王古",
          "sta": "652407"
        }
      ]
    },
    {
      "label": "宁河区",
      "options": [
        {
          "lat": 39.2622,
          "lon": 117.5747,
          "name": "宁河北淮淀",
          "sta": "652313"
        },
        {
          "lat": 39.4194,
          "lon": 117.5508,
          "name": "宁河东棘坨",
          "sta": "652302"
        },
        {
          "lat": 39.2822,
          "lon": 117.4253,
          "name": "宁河造甲城",
          "sta": "652303"
        },
        {
          "lat": 39.5275,
          "lon": 117.7069,
          "name": "宁河江洼口",
          "sta": "652304"
        },
        {
          "lat": 39.3086,
          "lon": 117.6678,
          "name": "宁河七里海镇",
          "sta": "652305"
        },
        {
          "lat": 39.4283,
          "lon": 117.6428,
          "name": "宁河艾林庄",
          "sta": "652307"
        },
        {
          "lat": 39.4289,
          "lon": 117.8092,
          "name": "宁河苗庄镇",
          "sta": "652309"
        },
        {
          "lat": 39.5469,
          "lon": 117.7508,
          "name": "宁河丰台镇",
          "sta": "652301"
        },
        {
          "lat": 39.5728,
          "lon": 117.8556,
          "name": "宁河岳龙镇",
          "sta": "652314"
        },
        {
          "lat": 39.3286,
          "lon": 117.5689,
          "name": "宁河俵口乡",
          "sta": "652312"
        },
        {
          "lat": 39.415,
          "lon": 117.7592,
          "name": "宁河廉庄乡水利站",
          "sta": "652311"
        },
        {
          "lat": 39.4619,
          "lon": 117.7561,
          "name": "宁河镇",
          "sta": "652310"
        },
        {
          "lat": 39.4858,
          "lon": 117.8022,
          "name": "宁河板桥镇",
          "sta": "652308"
        },
        {
          "lat": 39.4261,
          "lon": 117.6769,
          "name": "宁河大于庄",
          "sta": "652362"
        },
        {
          "lat": 39.3069,
          "lon": 117.5914,
          "name": "宁河七里海湿地",
          "sta": "652363"
        },
        {
          "lat": 39.3208,
          "lon": 117.4339,
          "name": "宁河潘庄镇",
          "sta": "652361"
        },
        {
          "lat": 39.4794,
          "lon": 117.8817,
          "name": "宁河张子铺",
          "sta": "652364"
        },
        {
          "lat": 39.4247,
          "lon": 117.4872,
          "name": "宁河玉米良种场",
          "sta": "652365"
        },
        {
          "lat": 39.35,
          "lon": 117.8167,
          "name": "宁河国家一般气象站",
          "sta": "54529"
        },
        {
          "lat": 39.3394,
          "lon": 117.7422,
          "name": "宁河大北镇",
          "sta": "652306"
        }
      ]
    },
    {
      "label": "蓟州区",
      "options": [
        {
          "lat": 39.9828,
          "lon": 117.4,
          "name": "蓟州洇溜",
          "sta": "652134"
        },
        {
          "lat": 39.9892,
          "lon": 117.2939,
          "name": "蓟州邦均",
          "sta": "652135"
        },
        {
          "lat": 39.9933,
          "lon": 117.73,
          "name": "蓟州西龙虎峪",
          "sta": "652166"
        },
        {
          "lat": 40.0758,
          "lon": 117.4964,
          "name": "蓟州仓上屯",
          "sta": "652168"
        },
        {
          "lat": 40.0908,
          "lon": 117.255,
          "name": "蓟州盘山",
          "sta": "652169"
        },
        {
          "lat": 40.1494,
          "lon": 117.4242,
          "name": "蓟州罗庄子",
          "sta": "652161"
        },
        {
          "lat": 39.8,
          "lon": 117.4,
          "name": "蓟州下窝头镇",
          "sta": "652162"
        },
        {
          "lat": 39.9556,
          "lon": 117.435,
          "name": "蓟州礼明庄",
          "sta": "652163"
        },
        {
          "lat": 39.9069,
          "lon": 117.3433,
          "name": "蓟州上仓",
          "sta": "652172"
        },
        {
          "lat": 39.8106,
          "lon": 117.3153,
          "name": "蓟州侯家营",
          "sta": "652171"
        },
        {
          "lat": 40.0186,
          "lon": 117.5103,
          "name": "蓟州九百户",
          "sta": "652170"
        },
        {
          "lat": 40.0478,
          "lon": 117.4492,
          "name": "蓟县国家一般气象站",
          "sta": "54428"
        },
        {
          "lat": 39.9428,
          "lon": 117.1461,
          "name": "蓟州西太平庄",
          "sta": "652102"
        },
        {
          "lat": 39.915,
          "lon": 117.1761,
          "name": "蓟州桑梓镇",
          "sta": "652103"
        },
        {
          "lat": 40.0236,
          "lon": 117.2047,
          "name": "蓟州刘吉素",
          "sta": "652101"
        },
        {
          "lat": 39.8697,
          "lon": 117.4197,
          "name": "蓟州杨津庄镇",
          "sta": "652106"
        },
        {
          "lat": 39.8692,
          "lon": 117.5139,
          "name": "蓟州白庄子",
          "sta": "652107"
        },
        {
          "lat": 39.9097,
          "lon": 117.2433,
          "name": "蓟州尤古庄",
          "sta": "652104"
        },
        {
          "lat": 39.8922,
          "lon": 117.3358,
          "name": "蓟州东施古镇",
          "sta": "652105"
        },
        {
          "lat": 39.7669,
          "lon": 117.5228,
          "name": "蓟州安棋盘",
          "sta": "652108"
        },
        {
          "lat": 40.2375,
          "lon": 117.4403,
          "name": "蓟州黄崖关",
          "sta": "652109"
        },
        {
          "lat": 40.0458,
          "lon": 117.1989,
          "name": "蓟州庄果峪",
          "sta": "652128"
        },
        {
          "lat": 40.0892,
          "lon": 117.325,
          "name": "蓟州双安",
          "sta": "652129"
        },
        {
          "lat": 39.9917,
          "lon": 117.4792,
          "name": "蓟州二里店",
          "sta": "652124"
        },
        {
          "lat": 40.1619,
          "lon": 117.3819,
          "name": "蓟州桑园",
          "sta": "652125"
        },
        {
          "lat": 40.2006,
          "lon": 117.3994,
          "name": "蓟州西大峪",
          "sta": "652126"
        },
        {
          "lat": 40.0856,
          "lon": 117.3983,
          "name": "蓟州铁岭子",
          "sta": "652127"
        },
        {
          "lat": 40.1581,
          "lon": 117.5656,
          "name": "蓟州石头营",
          "sta": "652120"
        },
        {
          "lat": 40.0978,
          "lon": 117.5364,
          "name": "蓟州穿芳峪",
          "sta": "652121"
        },
        {
          "lat": 40.0447,
          "lon": 117.365,
          "name": "蓟州石矿厂",
          "sta": "652122"
        },
        {
          "lat": 40.1092,
          "lon": 117.3142,
          "name": "蓟州梁庄",
          "sta": "652123"
        },
        {
          "lat": 40.2156,
          "lon": 117.5103,
          "name": "蓟州九山顶",
          "sta": "652133"
        }
      ]
    },
    {
      "label": "宝坻区",
      "options": [
        {
          "lat": 39.7433,
          "lon": 117.22,
          "name": "宝坻史各庄",
          "sta": "652208"
        },
        {
          "lat": 39.7289,
          "lon": 117.2975,
          "name": "宝坻宝平街",
          "sta": "652201"
        },
        {
          "lat": 39.5267,
          "lon": 117.2933,
          "name": "宝坻牛家牌",
          "sta": "652203"
        },
        {
          "lat": 39.4058,
          "lon": 117.4361,
          "name": "宝坻大唐庄",
          "sta": "652205"
        },
        {
          "lat": 39.4483,
          "lon": 117.3817,
          "name": "宝坻大白庄",
          "sta": "652204"
        },
        {
          "lat": 39.7389,
          "lon": 117.2786,
          "name": "宝坻高家庄",
          "sta": "652207"
        },
        {
          "lat": 39.6786,
          "lon": 117.1989,
          "name": "宝坻新开口",
          "sta": "652206"
        },
        {
          "lat": 39.7292,
          "lon": 117.4231,
          "name": "宝坻方家庄",
          "sta": "652210"
        },
        {
          "lat": 39.6311,
          "lon": 117.3136,
          "name": "宝坻郝各庄",
          "sta": "652216"
        },
        {
          "lat": 39.5514,
          "lon": 117.5364,
          "name": "宝坻欢喜庄",
          "sta": "652267"
        },
        {
          "lat": 39.4958,
          "lon": 117.5186,
          "name": "宝坻黄庄",
          "sta": "652265"
        },
        {
          "lat": 39.685,
          "lon": 117.4408,
          "name": "宝坻王卜庄",
          "sta": "652264"
        },
        {
          "lat": 39.7011,
          "lon": 117.5756,
          "name": "宝坻大钟庄",
          "sta": "652263"
        },
        {
          "lat": 39.6594,
          "lon": 117.2703,
          "name": "宝坻马家店",
          "sta": "652262"
        },
        {
          "lat": 39.7875,
          "lon": 117.2581,
          "name": "宝坻牛道口",
          "sta": "652261"
        },
        {
          "lat": 39.7333,
          "lon": 117.2833,
          "name": "宝坻",
          "sta": "54525"
        },
        {
          "lat": 39.6633,
          "lon": 117.3389,
          "name": "宝坻口东镇",
          "sta": "652212"
        },
        {
          "lat": 39.3981,
          "lon": 117.3597,
          "name": "宝坻尔王庄",
          "sta": "652217"
        },
        {
          "lat": 39.5789,
          "lon": 117.6072,
          "name": "宝坻八门城",
          "sta": "652214"
        },
        {
          "lat": 39.5639,
          "lon": 117.3739,
          "name": "宝坻周良庄",
          "sta": "652215"
        },
        {
          "lat": 39.7522,
          "lon": 117.3758,
          "name": "宝坻霍各庄",
          "sta": "652209"
        },
        {
          "lat": 39.5936,
          "lon": 117.2258,
          "name": "宝坻大口屯",
          "sta": "652202"
        },
        {
          "lat": 39.6442,
          "lon": 117.4797,
          "name": "宝坻林亭口",
          "sta": "652213"
        },
        {
          "lat": 39.7386,
          "lon": 117.5408,
          "name": "宝坻新安镇",
          "sta": "652211"
        }
      ]
    },
    {
      "label": "滨海新区",
      "options": [
        {
          "lat": 39.2692,
          "lon": 117.86,
          "name": "滨海新区白庄",
          "sta": "652862"
        },
        {
          "lat": 38.9547,
          "lon": 117.7086,
          "name": "滨海新区临港",
          "sta": "653101"
        },
        {
          "lat": 39.0767,
          "lon": 117.6917,
          "name": "滨海新区海晶西",
          "sta": "653167"
        },
        {
          "lat": 39.0461,
          "lon": 117.6914,
          "name": "滨海新区起步区泵站",
          "sta": "653166"
        },
        {
          "lat": 39.2211,
          "lon": 117.9597,
          "name": "滨海新区大神堂",
          "sta": "652804"
        },
        {
          "lat": 38.8525,
          "lon": 117.6264,
          "name": "滨海新区海滨浴场",
          "sta": "653107"
        },
        {
          "lat": 39.1803,
          "lon": 117.8606,
          "name": "滨海新区蔡家堡",
          "sta": "652803"
        },
        {
          "lat": 39.3019,
          "lon": 117.9328,
          "name": "滨海新区罗卜坨",
          "sta": "652805"
        },
        {
          "lat": 38.6439,
          "lon": 117.2342,
          "name": "滨海新区郭庄子",
          "sta": "652661"
        },
        {
          "lat": 39.2403,
          "lon": 118.0008,
          "name": "滨海新区洒金坨",
          "sta": "652861"
        },
        {
          "lat": 39.0328,
          "lon": 117.6906,
          "name": "滨海新区泰达街",
          "sta": "653169"
        },
        {
          "lat": 38.7289,
          "lon": 117.6256,
          "name": "滨海新区南疆港",
          "sta": "653178"
        },
        {
          "lat": 39,
          "lon": 117.7197,
          "name": "滨海新区新港公园",
          "sta": "653179"
        },
        {
          "lat": 39.07,
          "lon": 117.5383,
          "name": "滨海新区开发西区中南组",
          "sta": "653174"
        },
        {
          "lat": 39.1175,
          "lon": 117.7414,
          "name": "滨海新区中新生态城",
          "sta": "653175"
        },
        {
          "lat": 38.9881,
          "lon": 117.7131,
          "name": "滨海新区海河防潮闸",
          "sta": "653170"
        },
        {
          "lat": 38.9781,
          "lon": 117.7892,
          "name": "滨海新区五洲码头",
          "sta": "653171"
        },
        {
          "lat": 39.1,
          "lon": 117.5528,
          "name": "滨海新区开发西区东北组",
          "sta": "653173"
        },
        {
          "lat": 39.05,
          "lon": 117.7167,
          "name": "塘沽国家基本气象站",
          "sta": "54623"
        },
        {
          "lat": 39.2333,
          "lon": 117.7667,
          "name": "汉沽国家一般气象站",
          "sta": "54530"
        },
        {
          "lat": 38.85,
          "lon": 117.4667,
          "name": "大港国家一般气象站",
          "sta": "54645"
        },
        {
          "lat": 39.0586,
          "lon": 117.735,
          "name": "滨海新区十一大街",
          "sta": "653168"
        },
        {
          "lat": 38.9817,
          "lon": 117.6364,
          "name": "滨海新区盐场",
          "sta": "653163"
        },
        {
          "lat": 39.0033,
          "lon": 117.7636,
          "name": "滨海新区保税区",
          "sta": "653162"
        },
        {
          "lat": 39.0639,
          "lon": 117.6617,
          "name": "滨海新区新北街",
          "sta": "653161"
        },
        {
          "lat": 39.1067,
          "lon": 117.7489,
          "name": "滨海新区旅游区管委会",
          "sta": "653165"
        },
        {
          "lat": 39.0331,
          "lon": 117.7283,
          "name": "滨海新区新河街",
          "sta": "653164"
        },
        {
          "lat": 38.9044,
          "lon": 117.6469,
          "name": "滨海新区老四场",
          "sta": "652666"
        },
        {
          "lat": 38.7781,
          "lon": 117.2089,
          "name": "滨海新区钱圈水库",
          "sta": "652663"
        },
        {
          "lat": 38.6603,
          "lon": 117.5219,
          "name": "滨海新区马棚口",
          "sta": "652662"
        },
        {
          "lat": 38.8275,
          "lon": 117.4978,
          "name": "滨海新区上古林东",
          "sta": "652665"
        },
        {
          "lat": 38.6533,
          "lon": 117.3706,
          "name": "滨海新区沙井子",
          "sta": "652664"
        },
        {
          "lat": 38.8183,
          "lon": 117.31,
          "name": "滨海新区南台村",
          "sta": "652606"
        },
        {
          "lat": 38.7653,
          "lon": 117.3978,
          "name": "滨海新区北大港水库",
          "sta": "652601"
        },
        {
          "lat": 39.0103,
          "lon": 117.5733,
          "name": "滨海新区西部新城管委会",
          "sta": "653106"
        },
        {
          "lat": 38.9767,
          "lon": 117.5572,
          "name": "滨海新区新城",
          "sta": "653103"
        },
        {
          "lat": 39.0342,
          "lon": 117.67,
          "name": "滨海新区杭州道街",
          "sta": "653102"
        },
        {
          "lat": 39.2719,
          "lon": 117.7844,
          "name": "滨海新区大田镇",
          "sta": "652802"
        },
        {
          "lat": 39.2964,
          "lon": 117.9014,
          "name": "滨海新区杨家泊",
          "sta": "652801"
        },
        {
          "lat": 39.2431,
          "lon": 117.8181,
          "name": "滨海新区塞上街",
          "sta": "652807"
        },
        {
          "lat": 39.2553,
          "lon": 117.7961,
          "name": "滨海新区汉沽街",
          "sta": "652806"
        },
        {
          "lat": 38.7106,
          "lon": 117.2486,
          "name": "滨海新区刘岗庄",
          "sta": "652603"
        },
        {
          "lat": 38.7147,
          "lon": 117.1525,
          "name": "滨海新区李官庄",
          "sta": "652609"
        },
        {
          "lat": 38.8397,
          "lon": 117.33,
          "name": "滨海新区万家码头",
          "sta": "652608"
        },
        {
          "lat": 38.9275,
          "lon": 117.5039,
          "name": "滨海新区官港水库",
          "sta": "652602"
        },
        {
          "lat": 38.7322,
          "lon": 117.5481,
          "name": "滨海新区南港工业区",
          "sta": "652605"
        },
        {
          "lat": 38.7069,
          "lon": 117.4247,
          "name": "滨海新区滨海水厂",
          "sta": "652604"
        },
        {
          "lat": 38.6294,
          "lon": 117.3803,
          "name": "滨海新区太平镇",
          "sta": "652607"
        },
        {
          "lat": 39.0167,
          "lon": 117.65,
          "name": "滨海新区河滨公园",
          "sta": "653105"
        },
        {
          "lat": 39.1728,
          "lon": 117.6469,
          "name": "滨海新区北塘街",
          "sta": "653104"
        },
        {
          "lat": 39.005,
          "lon": 117.8253,
          "name": "滨海新区东疆港沙滩",
          "sta": "653177"
        }
      ]
    },
    {
      "label": "其他",
      "options": [
        {
          "lat": 39.0217,
          "lon": 118.7383,
          "name": "冀东油田4号岛",
          "sta": "653002"
        },
        {
          "lat": 38.2572,
          "lon": 119.2331,
          "name": "渤中26",
          "sta": "54638"
        },
        {
          "lat": 39.1119,
          "lon": 119.2039,
          "name": "秦皇岛32号",
          "sta": "54547"
        },
        {
          "lat": 39.1617,
          "lon": 120.3125,
          "name": "旅大32号",
          "sta": "54557"
        },
        {
          "lat": 39.8,
          "lon": 120.6167,
          "name": "旅大10号",
          "sta": "54552"
        },
        {
          "lat": 38.0831,
          "lon": 119.8331,
          "name": "渤中35号",
          "sta": "54649"
        },
        {
          "lat": 39.9833,
          "lon": 121.05,
          "name": "金县1号",
          "sta": "54560"
        },
        {
          "lat": 40.5,
          "lon": 121.35,
          "name": "锦州20号",
          "sta": "54468"
        },
        {
          "lat": 40.3833,
          "lon": 121.1333,
          "name": "锦州25号",
          "sta": "54464"
        },
        {
          "lat": 40.6333,
          "lon": 121.4667,
          "name": "锦州9号",
          "sta": "54465"
        },
        {
          "lat": 37.4028,
          "lon": 119.5861,
          "name": "垦利10号",
          "sta": "54745"
        },
        {
          "lat": 38.1175,
          "lon": 119.5492,
          "name": "渤中34号",
          "sta": "54743"
        },        
        {
          "lat": 39.9556,
          "lon": 120.8056,
          "name": "SZ36-1油田平台",
          "sta": "54553"
        },
        {
          "lat": 38.3025,
          "lon": 119.6372,
          "name": "BZ28-1油田平台",
          "sta": "54648"
        }
      ]
    }   
  ]
}