{"detail":[{"data_time":"201709151745","lat":39.3972,"lon":117.1292,"sta":"652418","sta_name":"武清徐官屯","vis_10min_avg":999998},{"data_time":"201709151745","lat":39.1664,"lon":117.1419,"sta":"653507","sta_name":"西于庄","vis_10min_avg":999998},{"data_time":"201709151745","lat":39.4289,"lon":117.1325,"sta":"652419","sta_name":"武清曹子里","vis_10min_avg":999998},{"data_time":"201709151745","lat":39.095,"lon":117.2311,"sta":"653508","sta_name":"挂甲寺","vis_10min_avg":999998},{"data_time":"201709151745","lat":39.0619,"lon":117.2181,"sta":"653509","sta_name":"珠江里","vis_10min_avg":999998},{"data_time":"201709151745","lat":39.4722,"lon":116.9242,"sta":"652410","sta_name":"武清泗村店","vis_10min_avg":999998},{"data_time":"201709151745","lat":39.3628,"lon":116.8969,"sta":"652411","sta_name":"武清石各庄","vis_10min_avg":999998},{"data_time":"201709151745","lat":39.3536,"lon":116.9322,"sta":"652412","sta_name":"武清陈咀","vis_10min_avg":999998},{"data_time":"201709151745","lat":39.1011,"lon":117.2189,"sta":"653501","sta_name":"小白楼","vis_10min_avg":999998},{"data_time":"201709151745","lat":39.6022,"lon":116.9003,"sta":"652413","sta_name":"武清高村","vis_10min_avg":999998},{"data_time":"201709151745","lat":39.1189,"lon":117.1831,"sta":"653502","sta_name":"福方里","vis_10min_avg":999998},{"data_time":"201709151745","lat":39.5417,"lon":117.0889,"sta":"652414","sta_name":"武清大良","vis_10min_avg":999998},{"data_time":"201709151745","lat":39.1072,"lon":117.1619,"sta":"653503","sta_name":"南江里","vis_10min_avg":999998},{"data_time":"201709151745","lat":39.5806,"lon":117.1342,"sta":"652415","sta_name":"武清河北屯","vis_10min_avg":999998},{"data_time":"201709151745","lat":39.1661,"lon":117.23,"sta":"653504","sta_name":"民权门","vis_10min_avg":999998},{"data_time":"201709151745","lat":39.5325,"lon":117.1919,"sta":"652416","sta_name":"武清崔黄口","vis_10min_avg":999998},{"data_time":"201709151745","lat":39.1339,"lon":117.2231,"sta":"653505","sta_name":"唐家口","vis_10min_avg":999998},{"data_time":"201709151745","lat":39.4656,"lon":117.0847,"sta":"652417","sta_name":"武清大碱厂","vis_10min_avg":999998},{"data_time":"201709151745","lat":39.095,"lon":117.2019,"sta":"653506","sta_name":"恩德里","vis_10min_avg":999998},{"data_time":"201709151745","lat":38.6439,"lon":117.2342,"sta":"652661","sta_name":"滨海新区郭庄子","vis_10min_avg":999998},{"data_time":"201709151745","lat":39.335,"lon":117.0861,"sta":"652420","sta_name":"武清下朱庄","vis_10min_avg":999998},{"data_time":"201709151745","lat":38.6603,"lon":117.5219,"sta":"652662","sta_name":"滨海新区马棚口","vis_10min_avg":999998},{"data_time":"201709151745","lat":39.5711,"lon":116.8183,"sta":"652407","sta_name":"武清大王古","vis_10min_avg":999998},{"data_time":"201709151745","lat":39.5539,"lon":116.8992,"sta":"652408","sta_name":"武清白古屯","vis_10min_avg":999998},{"data_time":"201709151745","lat":39.5253,"lon":116.9847,"sta":"652409","sta_name":"武清大孟庄","vis_10min_avg":999998},{"data_time":"201709151745","lat":39.0817,"lon":116.9308,"sta":"652762","sta_name":"西青辛口镇","vis_10min_avg":999998},{"data_time":"201709151745","lat":39.0319,"lon":117.2319,"sta":"652763","sta_name":"西青大寺镇","vis_10min_avg":999998},{"data_time":"201709151745","lat":39.3689,"lon":117.1947,"sta":"652401","sta_name":"武清梅厂镇","vis_10min_avg":999998},{"data_time":"201709151745","lat":38.9053,"lon":117.2508,"sta":"652764","sta_name":"西青王稳庄镇","vis_10min_avg":999998},{"data_time":"201709151745","lat":39.3939,"lon":117.0006,"sta":"652402","sta_name":"武清东蒲洼","vis_10min_avg":999998},{"data_time":"201709151745","lat":39.4478,"lon":116.8353,"sta":"652403","sta_name":"武清东马圈","vis_10min_avg":999998},{"data_time":"201709151745","lat":39.4283,"lon":116.9133,"sta":"652404","sta_name":"武清豆张庄","vis_10min_avg":999998},{"data_time":"201709151745","lat":39.1714,"lon":116.9253,"sta":"652405","sta_name":"武清王庆坨","vis_10min_avg":999998},{"data_time":"201709151745","lat":39.34,"lon":117.055,"sta":"652406","sta_name":"武清黄庄街","vis_10min_avg":999998},{"data_time":"201709151745","lat":39.415,"lon":117.7592,"sta":"652311","sta_name":"宁河廉庄乡水利站","vis_10min_avg":999998},{"data_time":"201709151745","lat":39.0844,"lon":117.2422,"sta":"653521","sta_name":"秀芳里","vis_10min_avg":999998},{"data_time":"201709151745","lat":39.3286,"lon":117.5689,"sta":"652312","sta_name":"宁河俵口乡","vis_10min_avg":999998},{"data_time":"201709151745","lat":39.2897,"lon":117.2222,"sta":"653401","sta_name":"北辰大张庄","vis_10min_avg":999998},{"data_time":"201709151745","lat":39.185,"lon":117.1603,"sta":"653402","sta_name":"北辰天穆镇","vis_10min_avg":999998},{"data_time":"201709151745","lat":39.2622,"lon":117.5747,"sta":"652313","sta_name":"宁河北淮淀","vis_10min_avg":999998},{"data_time":"201709151745","lat":39.2028,"lon":117.2144,"sta":"653403","sta_name":"北辰宜兴埠","vis_10min_avg":999998},{"data_time":"201709151745","lat":39.5728,"lon":117.8556,"sta":"652314","sta_name":"宁河岳龙镇","vis_10min_avg":999998},{"data_time":"201709151745","lat":39.1892,"lon":116.9894,"sta":"653404","sta_name":"北辰岔房子","vis_10min_avg":999998},{"data_time":"201709151745","lat":39.3381,"lon":117.2222,"sta":"653405","sta_name":"北辰南王平","vis_10min_avg":999998},{"data_time":"201709151745","lat":39.2944,"lon":117.3269,"sta":"653406","sta_name":"北辰辛侯庄","vis_10min_avg":999998},{"data_time":"201709151745","lat":38.8561,"lon":117.0683,"sta":"652561","sta_name":"静海团泊水库","vis_10min_avg":999998},{"data_time":"201709151745","lat":38.6475,"lon":117.0906,"sta":"652562","sta_name":"静海中旺","vis_10min_avg":999998},{"data_time":"201709151745","lat":38.9408,"lon":116.8614,"sta":"652563","sta_name":"静海梁头","vis_10min_avg":999998},{"data_time":"201709151745","lat":39.4858,"lon":117.8022,"sta":"652308","sta_name":"宁河板桥镇","vis_10min_avg":999998},{"data_time":"201709151745","lat":39.1469,"lon":117.1903,"sta":"653518","sta_name":"望海楼北里","vis_10min_avg":999998},{"data_time":"201709151745","lat":39.4289,"lon":117.8092,"sta":"652309","sta_name":"宁河苗庄镇","vis_10min_avg":999998},{"data_time":"201709151745","lat":39.0678,"lon":117.2567,"sta":"653519","sta_name":"恒山里","vis_10min_avg":999998},{"data_time":"201709151745","lat":38.7781,"lon":117.2089,"sta":"652663","sta_name":"滨海新区钱圈水库","vis_10min_avg":999998},{"data_time":"201709151745","lat":39.1031,"lon":117.2636,"sta":"653510","sta_name":"团结北里","vis_10min_avg":999998},{"data_time":"201709151745","lat":39.5469,"lon":117.7508,"sta":"652301","sta_name":"宁河丰台镇","vis_10min_avg":999998},{"data_time":"201709151745","lat":39.0608,"lon":117.2497,"sta":"653511","sta_name":"枫林路","vis_10min_avg":999998},{"data_time":"201709151745","lat":38.6533,"lon":117.3706,"sta":"652664","sta_name":"滨海新区沙井子","vis_10min_avg":999998},{"data_time":"201709151745","lat":39.4194,"lon":117.5508,"sta":"652302","sta_name":"宁河东棘坨","vis_10min_avg":999998},{"data_time":"201709151745","lat":39.0889,"lon":117.1472,"sta":"653512","sta_name":"眺园里","vis_10min_avg":999998},{"data_time":"201709151745","lat":38.8275,"lon":117.4978,"sta":"652665","sta_name":"滨海新区上古林东","vis_10min_avg":999998},{"data_time":"201709151745","lat":39.2822,"lon":117.4253,"sta":"652303","sta_name":"宁河造甲城","vis_10min_avg":999998},{"data_time":"201709151745","lat":39.1483,"lon":117.1589,"sta":"653513","sta_name":"泉春里","vis_10min_avg":999998},{"data_time":"201709151745","lat":38.9044,"lon":117.6469,"sta":"652666","sta_name":"滨海新区老四场","vis_10min_avg":999998},{"data_time":"201709151745","lat":39.5275,"lon":117.7069,"sta":"652304","sta_name":"宁河江洼口","vis_10min_avg":999998},{"data_time":"201709151745","lat":39.1658,"lon":117.1972,"sta":"653514","sta_name":"容和里","vis_10min_avg":999998},{"data_time":"201709151745","lat":39.3086,"lon":117.6678,"sta":"652305","sta_name":"宁河七里海镇","vis_10min_avg":999998},{"data_time":"201709151745","lat":39.0858,"lon":117.3069,"sta":"653515","sta_name":"东丽张贵庄","vis_10min_avg":999998},{"data_time":"201709151745","lat":39.3394,"lon":117.7422,"sta":"652306","sta_name":"宁河大北镇","vis_10min_avg":999998},{"data_time":"201709151745","lat":39.1528,"lon":117.1422,"sta":"653516","sta_name":"洛川里","vis_10min_avg":999998},{"data_time":"201709151745","lat":39.4283,"lon":117.6428,"sta":"652307","sta_name":"宁河艾林庄","vis_10min_avg":999998},{"data_time":"201709151745","lat":39.1825,"lon":117.1506,"sta":"653517","sta_name":"潞河园","vis_10min_avg":999998},{"data_time":"201709151745","lat":39.4619,"lon":117.7561,"sta":"652310","sta_name":"宁河镇","vis_10min_avg":999998},{"data_time":"201709151745","lat":39.1331,"lon":117.14,"sta":"653520","sta_name":"广灵里","vis_10min_avg":999998},{"data_time":"201709151745","lat":39.0489,"lon":117.3597,"sta":"653301","sta_name":"津南辛庄镇","vis_10min_avg":999998},{"data_time":"201709151745","lat":39.6633,"lon":117.3389,"sta":"652212","sta_name":"宝坻口东镇","vis_10min_avg":999998},{"data_time":"201709151745","lat":38.9778,"lon":117.2911,"sta":"653302","sta_name":"津南八里台镇","vis_10min_avg":999998},{"data_time":"201709151745","lat":39.6442,"lon":117.4797,"sta":"652213","sta_name":"宝坻林亭口","vis_10min_avg":999998},{"data_time":"201709151745","lat":39.5789,"lon":117.6072,"sta":"652214","sta_name":"宝坻八门城","vis_10min_avg":999998},{"data_time":"201709151745","lat":39.5639,"lon":117.3739,"sta":"652215","sta_name":"宝坻周良庄","vis_10min_avg":999998},{"data_time":"201709151745","lat":39.6311,"lon":117.3136,"sta":"652216","sta_name":"宝坻郝各庄","vis_10min_avg":999998},{"data_time":"201709151745","lat":39.3981,"lon":117.3597,"sta":"652217","sta_name":"宝坻尔王庄","vis_10min_avg":999998},{"data_time":"201709151745","lat":39.6133,"lon":117.0575,"sta":"652461","sta_name":"武清下伍旗","vis_10min_avg":999998},{"data_time":"201709151745","lat":39.5314,"lon":116.8667,"sta":"652462","sta_name":"武清城关镇","vis_10min_avg":999998},{"data_time":"201709151745","lat":39.4881,"lon":117.0025,"sta":"652463","sta_name":"武清南蔡村","vis_10min_avg":999998},{"data_time":"201709151745","lat":39.3767,"lon":117.2433,"sta":"652464","sta_name":"武清上马台","vis_10min_avg":999998},{"data_time":"201709151745","lat":40.0236,"lon":117.2047,"sta":"652101","sta_name":"蓟州刘吉素","vis_10min_avg":999998},{"data_time":"201709151745","lat":39.7522,"lon":117.3758,"sta":"652209","sta_name":"宝坻霍各庄","vis_10min_avg":999998},{"data_time":"201709151745","lat":39.7289,"lon":117.2975,"sta":"652201","sta_name":"宝坻宝平街","vis_10min_avg":999998},{"data_time":"201709151745","lat":38.7981,"lon":116.7519,"sta":"652564","sta_name":"静海沿庄","vis_10min_avg":999998},{"data_time":"201709151745","lat":39.5936,"lon":117.2258,"sta":"652202","sta_name":"宝坻大口屯","vis_10min_avg":999998},{"data_time":"201709151745","lat":39.0375,"lon":116.8108,"sta":"652565","sta_name":"静海台头","vis_10min_avg":999998},{"data_time":"201709151745","lat":39.5267,"lon":117.2933,"sta":"652203","sta_name":"宝坻牛家牌","vis_10min_avg":999998},{"data_time":"201709151745","lat":38.7878,"lon":117.0811,"sta":"652566","sta_name":"静海蔡公庄","vis_10min_avg":999998},{"data_time":"201709151745","lat":39.4483,"lon":117.3817,"sta":"652204","sta_name":"宝坻大白庄","vis_10min_avg":999998},{"data_time":"201709151745","lat":38.6858,"lon":116.8789,"sta":"652567","sta_name":"静海九宣闸","vis_10min_avg":999998},{"data_time":"201709151745","lat":39.4058,"lon":117.4361,"sta":"652205","sta_name":"宝坻大唐庄","vis_10min_avg":999998},{"data_time":"201709151745","lat":39.6786,"lon":117.1989,"sta":"652206","sta_name":"宝坻新开口","vis_10min_avg":999998},{"data_time":"201709151745","lat":39.7389,"lon":117.2786,"sta":"652207","sta_name":"宝坻高家庄","vis_10min_avg":999998},{"data_time":"201709151745","lat":39.7433,"lon":117.22,"sta":"652208","sta_name":"宝坻史各庄","vis_10min_avg":999998},{"data_time":"201709151745","lat":39.7292,"lon":117.4231,"sta":"652210","sta_name":"宝坻方家庄","vis_10min_avg":999998},{"data_time":"201709151745","lat":39.7386,"lon":117.5408,"sta":"652211","sta_name":"宝坻新安镇","vis_10min_avg":999998},{"data_time":"201709151745","lat":40.2008,"lon":117.4683,"sta":"652113","sta_name":"蓟州下营","vis_10min_avg":999998},{"data_time":"201709151745","lat":39.11,"lon":117.1469,"sta":"653565","sta_name":"景湖里","vis_10min_avg":999998},{"data_time":"201709151745","lat":39.5958,"lon":117.0558,"sta":"652476","sta_name":"武清下伍旗畜牧所","vis_10min_avg":999998},{"data_time":"201709151745","lat":39.0861,"lon":117.1,"sta":"653566","sta_name":"西青中北镇","vis_10min_avg":999998},{"data_time":"201709151745","lat":40.1406,"lon":117.5931,"sta":"652114","sta_name":"蓟州孙各庄","vis_10min_avg":999998},{"data_time":"201709151745","lat":40.1103,"lon":117.3733,"sta":"652115","sta_name":"蓟州洪水庄","vis_10min_avg":999998},{"data_time":"201709151745","lat":39.9519,"lon":117.3517,"sta":"652116","sta_name":"蓟州东赵各庄","vis_10min_avg":999998},{"data_time":"201709151745","lat":40.0333,"lon":117.7147,"sta":"652117","sta_name":"蓟州漳泗河","vis_10min_avg":999998},{"data_time":"201709151745","lat":40.0747,"lon":117.6953,"sta":"652118","sta_name":"蓟州出头岭","vis_10min_avg":999998},{"data_time":"201709151745","lat":40.0347,"lon":117.2475,"sta":"652119","sta_name":"蓟州许家台","vis_10min_avg":999998},{"data_time":"201709151745","lat":39.3208,"lon":117.4339,"sta":"652361","sta_name":"宁河潘庄镇","vis_10min_avg":999998},{"data_time":"201709151745","lat":39.4261,"lon":117.6769,"sta":"652362","sta_name":"宁河大于庄","vis_10min_avg":999998},{"data_time":"201709151745","lat":40.1581,"lon":117.5656,"sta":"652120","sta_name":"蓟州石头营","vis_10min_avg":999998},{"data_time":"201709151745","lat":39.3069,"lon":117.5914,"sta":"652363","sta_name":"宁河七里海湿地","vis_10min_avg":999998},{"data_time":"201709151745","lat":40.0978,"lon":117.5364,"sta":"652121","sta_name":"蓟州穿芳峪","vis_10min_avg":999998},{"data_time":"201709151745","lat":40.0447,"lon":117.365,"sta":"652122","sta_name":"蓟州石矿厂","vis_10min_avg":999998},{"data_time":"201709151745","lat":39.4794,"lon":117.8817,"sta":"652364","sta_name":"宁河张子铺","vis_10min_avg":999998},{"data_time":"201709151745","lat":40.1092,"lon":117.3142,"sta":"652123","sta_name":"蓟州梁庄","vis_10min_avg":999998},{"data_time":"201709151745","lat":39.4247,"lon":117.4872,"sta":"652365","sta_name":"宁河玉米良种场","vis_10min_avg":999998},{"data_time":"201709151745","lat":38.9167,"lon":116.9167,"sta":"54619","sta_name":"静海国家一般气象站","vis_10min_avg":999998},{"data_time":"201709151745","lat":39.0375,"lon":117.5031,"sta":"652904","sta_name":"东丽无瑕街","vis_10min_avg":999998},{"data_time":"201709151745","lat":39.1008,"lon":117.3717,"sta":"652905","sta_name":"东丽金桥街","vis_10min_avg":999998},{"data_time":"201709151745","lat":39.1317,"lon":117.4011,"sta":"652906","sta_name":"东丽保税区","vis_10min_avg":999998},{"data_time":"201709151745","lat":39.9428,"lon":117.1461,"sta":"652102","sta_name":"蓟州西太平庄","vis_10min_avg":999998},{"data_time":"201709151745","lat":39.36,"lon":116.8992,"sta":"652465","sta_name":"武清黄花店","vis_10min_avg":999998},{"data_time":"201709151745","lat":39.915,"lon":117.1761,"sta":"652103","sta_name":"蓟州桑梓镇","vis_10min_avg":999998},{"data_time":"201709151745","lat":39.4383,"lon":117.2703,"sta":"652466","sta_name":"武清大黄堡","vis_10min_avg":999998},{"data_time":"201709151745","lat":39.9097,"lon":117.2433,"sta":"652104","sta_name":"蓟州尤古庄","vis_10min_avg":999998},{"data_time":"201709151745","lat":39.2689,"lon":116.9328,"sta":"652467","sta_name":"武清汊沽港","vis_10min_avg":999998},{"data_time":"201709151745","lat":39.8922,"lon":117.3358,"sta":"652105","sta_name":"蓟州东施古镇","vis_10min_avg":999998},{"data_time":"201709151745","lat":39.6442,"lon":116.9339,"sta":"652468","sta_name":"武清河西务","vis_10min_avg":999998},{"data_time":"201709151745","lat":39.8697,"lon":117.4197,"sta":"652106","sta_name":"蓟州杨津庄镇","vis_10min_avg":999998},{"data_time":"201709151745","lat":39.43,"lon":116.9483,"sta":"652469","sta_name":"武清农科院","vis_10min_avg":999998},{"data_time":"201709151745","lat":39.8692,"lon":117.5139,"sta":"652107","sta_name":"蓟州白庄子","vis_10min_avg":999998},{"data_time":"201709151745","lat":39.7669,"lon":117.5228,"sta":"652108","sta_name":"蓟州安棋盘","vis_10min_avg":999998},{"data_time":"201709151745","lat":39.1725,"lon":117.3728,"sta":"652901","sta_name":"东丽华明街","vis_10min_avg":999998},{"data_time":"201709151745","lat":40.2375,"lon":117.4403,"sta":"652109","sta_name":"蓟州黄崖关","vis_10min_avg":999998},{"data_time":"201709151745","lat":39.4,"lon":116.9481,"sta":"652470","sta_name":"武清农科院南","vis_10min_avg":999998},{"data_time":"201709151745","lat":39.41,"lon":116.9486,"sta":"652471","sta_name":"武清农科院北","vis_10min_avg":999998},{"data_time":"201709151745","lat":38.9833,"lon":117.3667,"sta":"54622","sta_name":"津南国家一般气象站","vis_10min_avg":999998},{"data_time":"201709151745","lat":39.35,"lon":117.1331,"sta":"652472","sta_name":"武清绿博园","vis_10min_avg":999998},{"data_time":"201709151745","lat":39.3833,"lon":117.0167,"sta":"652473","sta_name":"武清杨村","vis_10min_avg":999998},{"data_time":"201709151745","lat":40.0797,"lon":117.6356,"sta":"652110","sta_name":"蓟州马伸桥","vis_10min_avg":999998},{"data_time":"201709151745","lat":39.1228,"lon":117.3133,"sta":"653563","sta_name":"东丽南程林","vis_10min_avg":999998},{"data_time":"201709151745","lat":39.9983,"lon":117.5836,"sta":"652111","sta_name":"蓟州五百户","vis_10min_avg":999998},{"data_time":"201709151745","lat":40.1397,"lon":117.5069,"sta":"652112","sta_name":"蓟州九龙山","vis_10min_avg":999998},{"data_time":"201709151745","lat":39.1472,"lon":117.2769,"sta":"653564","sta_name":"东丽云丽园","vis_10min_avg":999998},{"data_time":"201709151745","lat":39.05,"lon":117.7167,"sta":"54623","sta_name":"塘沽","vis_10min_avg":999998},{"data_time":"201709151745","lat":39.9892,"lon":117.2939,"sta":"652135","sta_name":"蓟州邦均","vis_10min_avg":999998},{"data_time":"201709151745","lat":39.2356,"lon":117.2472,"sta":"653467","sta_name":"北辰区科技园东区","vis_10min_avg":999998},{"data_time":"201709151745","lat":39.0708,"lon":117.1686,"sta":"653588","sta_name":"奥运体育馆","vis_10min_avg":999998},{"data_time":"201709151745","lat":39.1728,"lon":117.6469,"sta":"653104","sta_name":"滨海新区北塘街","vis_10min_avg":999998},{"data_time":"201709151745","lat":39.2967,"lon":117.1592,"sta":"653468","sta_name":"北辰区科技园北区","vis_10min_avg":999998},{"data_time":"201709151745","lat":39.0722,"lon":117.1669,"sta":"653589","sta_name":"奥体特种站","vis_10min_avg":999998},{"data_time":"201709151745","lat":39.0167,"lon":117.65,"sta":"653105","sta_name":"滨海新区河滨公园","vis_10min_avg":999998},{"data_time":"201709151745","lat":39.2853,"lon":117.2772,"sta":"653469","sta_name":"北辰大兴水库","vis_10min_avg":999998},{"data_time":"201709151745","lat":39.0103,"lon":117.5733,"sta":"653106","sta_name":"滨海新区西部新城管委会","vis_10min_avg":999998},{"data_time":"201709151745","lat":38.8525,"lon":117.6264,"sta":"653107","sta_name":"滨海新区海滨浴场","vis_10min_avg":999998},{"data_time":"201709151745","lat":39.0375,"lon":117.2481,"sta":"653590","sta_name":"全运村特种站","vis_10min_avg":999998},{"data_time":"201709151745","lat":39.2797,"lon":117.0192,"sta":"653470","sta_name":"北辰前丁庄","vis_10min_avg":999998},{"data_time":"201709151745","lat":38.9614,"lon":117.0664,"sta":"653591","sta_name":"静海团泊特种站","vis_10min_avg":999998},{"data_time":"201709151745","lat":39.7875,"lon":117.2581,"sta":"652261","sta_name":"宝坻牛道口","vis_10min_avg":999998},{"data_time":"201709151745","lat":39.6594,"lon":117.2703,"sta":"652262","sta_name":"宝坻马家店","vis_10min_avg":999998},{"data_time":"201709151745","lat":39.7011,"lon":117.5756,"sta":"652263","sta_name":"宝坻大钟庄","vis_10min_avg":999998},{"data_time":"201709151745","lat":39.685,"lon":117.4408,"sta":"652264","sta_name":"宝坻王卜庄","vis_10min_avg":999998},{"data_time":"201709151745","lat":39.4958,"lon":117.5186,"sta":"652265","sta_name":"宝坻黄庄","vis_10min_avg":999998},{"data_time":"201709151745","lat":38.9392,"lon":117.9803,"sta":"54630","sta_name":"大沽灯塔","vis_10min_avg":999998},{"data_time":"201709151745","lat":39.0667,"lon":117.2,"sta":"54517","sta_name":"天津城市气候监测站","vis_10min_avg":999998},{"data_time":"201709151745","lat":39.1803,"lon":117.8606,"sta":"652803","sta_name":"滨海新区蔡家堡","vis_10min_avg":999998},{"data_time":"201709151745","lat":39.2211,"lon":117.9597,"sta":"652804","sta_name":"滨海新区大神堂","vis_10min_avg":999998},{"data_time":"201709151745","lat":39.3019,"lon":117.9328,"sta":"652805","sta_name":"滨海新区罗卜坨","vis_10min_avg":999998},{"data_time":"201709151745","lat":39.2553,"lon":117.7961,"sta":"652806","sta_name":"滨海新区汉沽街","vis_10min_avg":999998},{"data_time":"201709151745","lat":39.2431,"lon":117.8181,"sta":"652807","sta_name":"滨海新区塞上街","vis_10min_avg":999998},{"data_time":"201709151745","lat":39.9917,"lon":117.4792,"sta":"652124","sta_name":"蓟州二里店","vis_10min_avg":999998},{"data_time":"201709151745","lat":40.1619,"lon":117.3819,"sta":"652125","sta_name":"蓟州桑园","vis_10min_avg":999998},{"data_time":"201709151745","lat":40.2006,"lon":117.3994,"sta":"652126","sta_name":"蓟州西大峪","vis_10min_avg":999998},{"data_time":"201709151745","lat":40.0856,"lon":117.3983,"sta":"652127","sta_name":"蓟州铁岭子","vis_10min_avg":999998},{"data_time":"201709151745","lat":40.0458,"lon":117.1989,"sta":"652128","sta_name":"蓟州庄果峪","vis_10min_avg":999998},{"data_time":"201709151745","lat":40.0892,"lon":117.325,"sta":"652129","sta_name":"蓟州双安","vis_10min_avg":999998},{"data_time":"201709151745","lat":39.2964,"lon":117.9014,"sta":"652801","sta_name":"滨海新区杨家泊","vis_10min_avg":999998},{"data_time":"201709151745","lat":39.2719,"lon":117.7844,"sta":"652802","sta_name":"滨海新区大田镇","vis_10min_avg":999998},{"data_time":"201709151745","lat":39.0931,"lon":117.1789,"sta":"653581","sta_name":"东风里","vis_10min_avg":999998},{"data_time":"201709151745","lat":40.0478,"lon":117.3553,"sta":"652130","sta_name":"蓟州石矿山","vis_10min_avg":999998},{"data_time":"201709151745","lat":39.1303,"lon":117.1647,"sta":"653582","sta_name":"南开二纬路","vis_10min_avg":999998},{"data_time":"201709151745","lat":39.1964,"lon":117.0525,"sta":"653461","sta_name":"北辰青光","vis_10min_avg":999998},{"data_time":"201709151745","lat":40.0939,"lon":117.5231,"sta":"652131","sta_name":"蓟州毛家峪","vis_10min_avg":999998},{"data_time":"201709151745","lat":39.4275,"lon":117.0592,"sta":"54523","sta_name":"绿博园站","vis_10min_avg":999998},{"data_time":"201709151745","lat":39.0822,"lon":117.125,"sta":"653583","sta_name":"华苑小区","vis_10min_avg":999998},{"data_time":"201709151745","lat":39.26,"lon":117.1044,"sta":"653462","sta_name":"北辰双街","vis_10min_avg":999998},{"data_time":"201709151745","lat":40.1764,"lon":117.4653,"sta":"652132","sta_name":"蓟州大红峪","vis_10min_avg":999998},{"data_time":"201709151745","lat":39.1381,"lon":117.2092,"sta":"653584","sta_name":"天津站","vis_10min_avg":999998},{"data_time":"201709151745","lat":39.2469,"lon":117.2192,"sta":"653463","sta_name":"北辰小淀","vis_10min_avg":999998},{"data_time":"201709151745","lat":40.2156,"lon":117.5103,"sta":"652133","sta_name":"蓟州九山顶","vis_10min_avg":999998},{"data_time":"201709151745","lat":38.9547,"lon":117.7086,"sta":"653101","sta_name":"滨海新区临港","vis_10min_avg":999998},{"data_time":"201709151745","lat":39.2264,"lon":117.0308,"sta":"653464","sta_name":"北辰双口","vis_10min_avg":999998},{"data_time":"201709151745","lat":39.1131,"lon":117.1886,"sta":"653585","sta_name":"黄家花园","vis_10min_avg":999998},{"data_time":"201709151745","lat":39.9828,"lon":117.4,"sta":"652134","sta_name":"蓟州洇溜","vis_10min_avg":999998},{"data_time":"201709151745","lat":39.1636,"lon":117.215,"sta":"653586","sta_name":"中山北路","vis_10min_avg":999998},{"data_time":"201709151745","lat":39.0342,"lon":117.67,"sta":"653102","sta_name":"滨海新区杭州道街","vis_10min_avg":999998},{"data_time":"201709151745","lat":39.2539,"lon":117.3467,"sta":"653465","sta_name":"北辰西堤头","vis_10min_avg":999998},{"data_time":"201709151745","lat":39.0833,"lon":117.05,"sta":"54527","sta_name":"西青国家基本气象站","vis_10min_avg":999998},{"data_time":"201709151745","lat":39.0833,"lon":117.3333,"sta":"54526","sta_name":"东丽国家一般气象站","vis_10min_avg":999998},{"data_time":"201709151745","lat":39.7333,"lon":117.2833,"sta":"54525","sta_name":"宝坻气象局","vis_10min_avg":999998},{"data_time":"201709151745","lat":38.85,"lon":117.4667,"sta":"54645","sta_name":"大港国家一般气象站","vis_10min_avg":999998},{"data_time":"201709151745","lat":39.35,"lon":117.8167,"sta":"54529","sta_name":"宁河国家一般气象站","vis_10min_avg":999998},{"data_time":"201709151745","lat":39.2333,"lon":117.1333,"sta":"54528","sta_name":"北辰国家一般气象站","vis_10min_avg":999998},{"data_time":"201709151745","lat":38.9739,"lon":117.4856,"sta":"653367","sta_name":"津南葛沽","vis_10min_avg":999998},{"data_time":"201709151745","lat":39.2333,"lon":117.7667,"sta":"54530","sta_name":"汉沽国家一般气象站","vis_10min_avg":999998},{"data_time":"201709151745","lat":40.1494,"lon":117.4242,"sta":"652161","sta_name":"蓟州罗庄子","vis_10min_avg":999998},{"data_time":"201709151745","lat":39.8,"lon":117.4,"sta":"652162","sta_name":"蓟州下窝头镇","vis_10min_avg":999998},{"data_time":"201709151745","lat":39.9556,"lon":117.435,"sta":"652163","sta_name":"蓟州礼明庄","vis_10min_avg":999998},{"data_time":"201709151745","lat":39.9706,"lon":117.2864,"sta":"652164","sta_name":"小庄炮站","vis_10min_avg":999998},{"data_time":"201709151745","lat":40.1917,"lon":117.5589,"sta":"652165","sta_name":"蓟州八仙山","vis_10min_avg":999998},{"data_time":"201709151745","lat":39.9933,"lon":117.73,"sta":"652166","sta_name":"蓟州西龙虎峪","vis_10min_avg":999998},{"data_time":"201709151745","lat":39.7886,"lon":117.4197,"sta":"652167","sta_name":"蓟州下仓","vis_10min_avg":999998},{"data_time":"201709151745","lat":39.1442,"lon":117.0797,"sta":"652704","sta_name":"西青曹庄村","vis_10min_avg":999998},{"data_time":"201709151745","lat":39.1236,"lon":117.0181,"sta":"652705","sta_name":"西青杨柳青","vis_10min_avg":999998},{"data_time":"201709151745","lat":39.0886,"lon":116.9644,"sta":"652706","sta_name":"西青中辛口村","vis_10min_avg":999998},{"data_time":"201709151745","lat":38.9928,"lon":117.2575,"sta":"652707","sta_name":"西青赤龙南街","vis_10min_avg":999998},{"data_time":"201709151745","lat":39.1631,"lon":117.0983,"sta":"652708","sta_name":"西青西营门","vis_10min_avg":999998},{"data_time":"201709151745","lat":39.5514,"lon":117.5364,"sta":"652267","sta_name":"宝坻欢喜庄","vis_10min_avg":999998},{"data_time":"201709151745","lat":38.8939,"lon":117.26,"sta":"652701","sta_name":"西青泰祥园","vis_10min_avg":999998},{"data_time":"201709151745","lat":39.0308,"lon":117.2461,"sta":"652702","sta_name":"西青开发区","vis_10min_avg":999998},{"data_time":"201709151745","lat":39.0428,"lon":117.1075,"sta":"652703","sta_name":"西青精武镇","vis_10min_avg":999998},{"data_time":"201709151745","lat":39.0156,"lon":117.4156,"sta":"653361","sta_name":"津南双桥河镇","vis_10min_avg":999998},{"data_time":"201709151745","lat":39.0522,"lon":117.3039,"sta":"653362","sta_name":"津南双港","vis_10min_avg":999998},{"data_time":"201709151745","lat":38.9053,"lon":117.4611,"sta":"653363","sta_name":"津南小站镇","vis_10min_avg":999998},{"data_time":"201709151745","lat":38.94,"lon":117.3436,"sta":"653364","sta_name":"津南农业园区","vis_10min_avg":999998},{"data_time":"201709151745","lat":39.0322,"lon":118.2256,"sta":"653001","sta_name":"冀东油田1号岛","vis_10min_avg":999998},{"data_time":"201709151745","lat":38.875,"lon":117.3644,"sta":"653365","sta_name":"津南双闸","vis_10min_avg":999998},{"data_time":"201709151745","lat":39.0217,"lon":118.7383,"sta":"653002","sta_name":"冀东油田4号岛","vis_10min_avg":999998},{"data_time":"201709151745","lat":38.9458,"lon":117.4036,"sta":"653366","sta_name":"津南北闸口","vis_10min_avg":999998},{"data_time":"201709151745","lat":40.0478,"lon":117.4492,"sta":"54428","sta_name":"蓟县国家一般气象站","vis_10min_avg":999998},{"data_time":"201709151745","lat":39.2275,"lon":117.3667,"sta":"652968","sta_name":"东丽北于堡","vis_10min_avg":999998},{"data_time":"201709151745","lat":38.7322,"lon":117.5481,"sta":"652605","sta_name":"滨海新区南港工业区","vis_10min_avg":999998},{"data_time":"201709151745","lat":38.8183,"lon":117.31,"sta":"652606","sta_name":"滨海新区南台村","vis_10min_avg":999998},{"data_time":"201709151745","lat":38.6294,"lon":117.3803,"sta":"652607","sta_name":"滨海新区太平镇","vis_10min_avg":999998},{"data_time":"201709151745","lat":38.8397,"lon":117.33,"sta":"652608","sta_name":"滨海新区万家码头","vis_10min_avg":999998},{"data_time":"201709151745","lat":38.7147,"lon":117.1525,"sta":"652609","sta_name":"滨海新区李官庄","vis_10min_avg":999998},{"data_time":"201709151745","lat":40.0758,"lon":117.4964,"sta":"652168","sta_name":"蓟州仓上屯","vis_10min_avg":999998},{"data_time":"201709151745","lat":40.0908,"lon":117.255,"sta":"652169","sta_name":"蓟州盘山","vis_10min_avg":999998},{"data_time":"201709151745","lat":39.0689,"lon":117.4572,"sta":"652961","sta_name":"东丽军粮城","vis_10min_avg":999998},{"data_time":"201709151745","lat":39.185,"lon":117.4739,"sta":"652962","sta_name":"东丽湖","vis_10min_avg":999998},{"data_time":"201709151745","lat":39.2019,"lon":117.2425,"sta":"652963","sta_name":"东丽大毕庄","vis_10min_avg":999998},{"data_time":"201709151745","lat":39.1828,"lon":117.5322,"sta":"652964","sta_name":"东丽华明设施农业园","vis_10min_avg":999998},{"data_time":"201709151745","lat":38.7653,"lon":117.3978,"sta":"652601","sta_name":"滨海新区北大港水库","vis_10min_avg":999998},{"data_time":"201709151745","lat":39.0786,"lon":117.3297,"sta":"652965","sta_name":"东丽丰年村街","vis_10min_avg":999998},{"data_time":"201709151745","lat":38.9275,"lon":117.5039,"sta":"652602","sta_name":"滨海新区官港水库","vis_10min_avg":999998},{"data_time":"201709151745","lat":38.7106,"lon":117.2486,"sta":"652603","sta_name":"滨海新区刘岗庄","vis_10min_avg":999998},{"data_time":"201709151745","lat":39.1039,"lon":117.4242,"sta":"652966","sta_name":"东丽空港经济区","vis_10min_avg":999998},{"data_time":"201709151745","lat":39.0017,"lon":117.5108,"sta":"652967","sta_name":"东丽无瑕街苏庄子","vis_10min_avg":999998},{"data_time":"201709151745","lat":38.7069,"lon":117.4247,"sta":"652604","sta_name":"滨海新区滨海水厂","vis_10min_avg":999998},{"data_time":"201709151745","lat":39.8106,"lon":117.3153,"sta":"652171","sta_name":"蓟州侯家营","vis_10min_avg":999998},{"data_time":"201709151745","lat":39.9069,"lon":117.3433,"sta":"652172","sta_name":"蓟州上仓","vis_10min_avg":999998},{"data_time":"201709151745","lat":40.0186,"lon":117.5103,"sta":"652170","sta_name":"蓟州九百户","vis_10min_avg":999998},{"data_time":"201709151745","lat":39.0328,"lon":117.6906,"sta":"653169","sta_name":"滨海新区泰达街","vis_10min_avg":999998},{"data_time":"201709151745","lat":38.9447,"lon":116.9906,"sta":"652510","sta_name":"静海前毕庄","vis_10min_avg":999998},{"data_time":"201709151745","lat":38.9,"lon":116.9897,"sta":"652511","sta_name":"静海大丰堆","vis_10min_avg":999998},{"data_time":"201709151745","lat":38.9447,"lon":117.0464,"sta":"652512","sta_name":"静海杨成庄","vis_10min_avg":999998},{"data_time":"201709151745","lat":38.7075,"lon":117.0383,"sta":"652513","sta_name":"静海薛庄子","vis_10min_avg":999998},{"data_time":"201709151745","lat":39.1,"lon":117.5528,"sta":"653173","sta_name":"滨海新区开发西区东北组","vis_10min_avg":999998},{"data_time":"201709151745","lat":39.07,"lon":117.5383,"sta":"653174","sta_name":"滨海新区开发西区中南组","vis_10min_avg":999998},{"data_time":"201709151745","lat":39.1175,"lon":117.7414,"sta":"653175","sta_name":"滨海新区中新生态城","vis_10min_avg":999998},{"data_time":"201709151745","lat":39.005,"lon":117.8253,"sta":"653177","sta_name":"滨海新区东疆港沙滩","vis_10min_avg":999998},{"data_time":"201709151745","lat":38.7289,"lon":117.6256,"sta":"653178","sta_name":"滨海新区南疆港","vis_10min_avg":999998},{"data_time":"201709151745","lat":39,"lon":117.7197,"sta":"653179","sta_name":"滨海新区新港公园","vis_10min_avg":999998},{"data_time":"201709151745","lat":38.8708,"lon":117.2497,"sta":"652761","sta_name":"西青小孙庄","vis_10min_avg":999998},{"data_time":"201709151745","lat":38.9881,"lon":117.7131,"sta":"653170","sta_name":"滨海新区海河防潮闸","vis_10min_avg":999998},{"data_time":"201709151745","lat":38.9781,"lon":117.7892,"sta":"653171","sta_name":"滨海新区五洲码头","vis_10min_avg":999998},{"data_time":"201709151745","lat":38.7644,"lon":117.0064,"sta":"652506","sta_name":"静海西翟庄","vis_10min_avg":999998},{"data_time":"201709151745","lat":38.8008,"lon":117.1644,"sta":"652507","sta_name":"静海胡连庄","vis_10min_avg":999998},{"data_time":"201709151745","lat":39.0247,"lon":116.9694,"sta":"652508","sta_name":"静海良王庄","vis_10min_avg":999998},{"data_time":"201709151745","lat":38.9336,"lon":116.7694,"sta":"652509","sta_name":"静海王口镇","vis_10min_avg":999998},{"data_time":"201709151745","lat":39.2403,"lon":118.0008,"sta":"652861","sta_name":"滨海新区洒金坨","vis_10min_avg":999998},{"data_time":"201709151745","lat":39.2692,"lon":117.86,"sta":"652862","sta_name":"盐场气象站","vis_10min_avg":999998},{"data_time":"201709151745","lat":39.0531,"lon":116.915,"sta":"652501","sta_name":"静海独流镇","vis_10min_avg":999998},{"data_time":"201709151745","lat":38.8897,"lon":116.79,"sta":"652502","sta_name":"静海大邀堡","vis_10min_avg":999998},{"data_time":"201709151745","lat":38.8719,"lon":116.9081,"sta":"652503","sta_name":"静海双塘镇","vis_10min_avg":999998},{"data_time":"201709151745","lat":38.9022,"lon":117.1581,"sta":"652504","sta_name":"静海团泊镇","vis_10min_avg":999998},{"data_time":"201709151745","lat":38.785,"lon":116.9006,"sta":"652505","sta_name":"静海纪庄子","vis_10min_avg":999998},{"data_time":"201709151745","lat":39.0639,"lon":117.6617,"sta":"653161","sta_name":"滨海新区新北街","vis_10min_avg":999998},{"data_time":"201709151745","lat":39.0033,"lon":117.7636,"sta":"653162","sta_name":"滨海新区保税区","vis_10min_avg":999998},{"data_time":"201709151745","lat":38.9817,"lon":117.6364,"sta":"653163","sta_name":"滨海新区盐场","vis_10min_avg":999998},{"data_time":"201709151745","lat":39.0331,"lon":117.7283,"sta":"653164","sta_name":"滨海新区新河街","vis_10min_avg":999998},{"data_time":"201709151745","lat":39.1067,"lon":117.7489,"sta":"653165","sta_name":"滨海新区旅游区管委会","vis_10min_avg":999998},{"data_time":"201709151745","lat":39.0461,"lon":117.6914,"sta":"653166","sta_name":"滨海新区起步区泵站","vis_10min_avg":999998},{"data_time":"201709151745","lat":39.0767,"lon":117.6917,"sta":"653167","sta_name":"滨海新区海晶西","vis_10min_avg":999998},{"data_time":"201709151745","lat":39.0586,"lon":117.735,"sta":"653168","sta_name":"滨海新区十一大街","vis_10min_avg":999998}],"errorCode":0,"errorInfo":"ok"}